[
	{
		"code": "TAK",
		"lat": "29.495180",
		"lon": "82.403470",
		"name": "Karnali Bridge",
		"city": "Takamatsu",
		"state": "Kagawa Prefecture",
		"country": "Japan",
		"woeid": "23424856",
		"tz": "Asia/Tokyo",
		"phone": "",
		"type": "Airports",
		"email": "",
		"url": "",
		"runway_length": null,
		"elev": null,
		"icao": "",
		"direct_flights": "3",
		"carriers": "3"
	},
	{
		"code": "TKN",
		"lat": "28.063920",
		"lon": "81.619580",
		"name": "Nepalgunj",
		"city": "Amagi-cho",
		"state": "Kagoshima Prefecture",
		"country": "Japan",
		"woeid": "12514026",
		"tz": "Asia/Tokyo",
		"phone": "",
		"type": "Airports",
		"email": "",
		"url": "",
		"runway_length": null,
		"elev": null,
		"icao": "",
		"direct_flights": "1",
		"carriers": "1"
	},
	{
		"code": "TKS",
		"lat": "27.712020",
		"lon": "85.312950",
		"name": "Bardiya",
		"city": "Matsushige-cho",
		"state": "Tokushima Prefecture",
		"country": "Japan",
		"woeid": "12514027",
		"tz": "Asia/Tokyo",
		"phone": "",
		"type": "Airports",
		"email": "",
		"url": "",
		"runway_length": "6560",
		"elev": "26",
		"icao": "",
		"direct_flights": "2",
		"carriers": "2"
	},
	{
		"code": "TOY",
		"lat": "27.918720",
		"lon": "82.720909",
		"name": "Location D",
		"city": "Toyama-shi",
		"state": "Toyama Prefecture",
		"country": "Japan",
		"woeid": "2345891",
		"tz": "Asia/Tokyo",
		"phone": "",
		"type": "Airports",
		"email": "",
		"url": "",
		"runway_length": null,
		"elev": null,
		"icao": "",
		"direct_flights": "6",
		"carriers": "5"
	},
	{
		"code": "TSJ",
		"lat": "27.712021",
		"lon": "85.312950",
		"name": "Kathmandu",
		"city": "Tsushima-shi",
		"state": "Nagasaki Prefecture",
		"country": "Japan",
		"woeid": "12514032",
		"tz": "Asia/Tokyo",
		"phone": "",
		"type": "Airports",
		"email": "",
		"url": "",
		"runway_length": null,
		"elev": null,
		"icao": "",
		"direct_flights": "1",
		"carriers": "1"
	},
	{
		"code": "TTJ",
		"lat": "28.495180",
		"lon": "81.403470",
		"name": "Location A",
		"city": "Tottori-shi",
		"state": "Tottori Prefecture",
		"country": "Japan",
		"woeid": "12514029",
		"tz": "Asia/Tokyo",
		"phone": "",
		"type": "Airports",
		"email": "",
		"url": "",
		"runway_length": null,
		"elev": null,
		"icao": "",
		"direct_flights": "1",
		"carriers": "1"
	},
	{
		"code": "UBJ",
		"lat": "29.35180",
		"lon": "82.103470",
		"name": "Location B",
		"city": "Ube-shi",
		"state": "Yamaguchi Prefecture",
		"country": "Japan",
		"woeid": "12514036",
		"tz": "Asia/Tokyo",
		"phone": "",
		"type": "Airports",
		"email": "",
		"url": "",
		"runway_length": "6560",
		"elev": "23",
		"icao": "",
		"direct_flights": "1",
		"carriers": "2"
	},
	{
		"code": "YGJ",
		"lat": "29.36180",
		"lon": "82.403470",
		"name": "Location C",
		"city": "Sakaiminato-shi",
		"state": "Tottori Prefecture",
		"country": "Japan",
		"woeid": "12513987",
		"tz": "Asia/Tokyo",
		"phone": "",
		"type": "Airports",
		"email": "",
		"url": "",
		"runway_length": "4920",
		"elev": "20",
		"icao": "",
		"direct_flights": "3",
		"carriers": "3"
	}
]
